[{"lat":"-16.41617","lng":"-71.515546","id":13379514,"name":"The Box Big Store Mall Aventura Arequipa Porogonche","address":"Av. Porongoche 500","country":"Peru","state":"Arequipa","city":"Arequipa","priority":1,"apply_to_type":1},{"lat":"-16.39006","lng":"-71.546861","id":13379515,"name":"The Box Store Mall Plaza Arequipa Cayma","address":"Av. Ejercito 795","address2":"Local A3007\/3009\/3013 - Nivel 3","country":"Peru","state":"Arequipa","city":"Arequipa","priority":1,"apply_to_type":1},{"lat":"-13.515296","lng":"-71.985437","id":13379516,"name":"The Box Store Real Plaza Cusco 1","address":"Av. De la Cultura S\/N","address2":"Int 223","country":"Peru","state":"Cusco","city":"Cusco","priority":1,"apply_to_type":1},{"lat":"-12.014774","lng":"-76.885043","id":13379517,"name":"The Box Store Real Plaza Puruchuco","address":"Av. Nicolas Ayllon 4470","address2":"Local 238","country":"Peru","state":"Lima","city":"Ate","priority":1,"apply_to_type":1},{"lat":"-12.055178","lng":"-76.965956","id":13379518,"name":"The Box Big Store Mall Aventura Plaza Santa Anita","address":"Carretera Central 111","address2":"Int C 1011-C 1013","country":"Peru","state":"Lima","city":"Santa Anita","priority":1,"apply_to_type":1},{"lat":"-12.085722","lng":"-76.97683","id":13379519,"name":"The Box Store Jockey Plaza","address":"Av.Javier Prado Este Nº 4200","address2":"Int. 124","country":"Peru","state":"Lima","city":"Surco","priority":1,"apply_to_type":1},{"lat":"-12.088656","lng":"-77.004726","id":13379520,"name":"The Box Store La Rambla San Borja","address":"Av. Javier Prado Este 2050","address2":"Tda 224","country":"Peru","state":"Lima","city":"San Borja","priority":1,"apply_to_type":1},{"lat":"-12.091994","lng":"-77.038933","id":13379521,"name":"The Box Big Store San Isidro","address":"Av. Camino Real 1278","address2":"San Isidro","country":"Peru","state":"Lima","city":"Lima","priority":1,"apply_to_type":1},{"lat":"-12.067322","lng":"-77.047668","id":13379522,"name":"The Box Store La Rambla Brasil","address":"Av. Brasil 714","address2":"Int 792 \/ Local 222-223","country":"Peru","state":"Lima","city":"Breña","priority":1,"apply_to_type":1},{"lat":"-12.006764","lng":"-77.061344","id":13379523,"name":"The Box Store Mega Plaza Independencia","address":"Av. Alfredo Mendiola 3698","address2":"Int. 329","country":"Peru","state":"Lima","city":"Independencia","priority":1,"apply_to_type":1},{"lat":"-9.063336","lng":"-78.589011","id":13379524,"name":"The Box Big Store Mega Plaza Chimbote","address":"Av. Victor Raúl Haya De la Torre 4522","address2":"Modulo M23","country":"Peru","state":"Áncash","city":"Chimbote","priority":1,"apply_to_type":1},{"lat":"-8.104941","lng":"-79.046462","id":13379525,"name":"The Box Store Mall Plaza Trujillo","address":"Av. America Oeste 750","address2":"Int. D2006A -D2006B","country":"Peru","state":"La Libertad","city":"La Libertad","priority":1,"apply_to_type":1},{"lat":"-6.778287","lng":"-79.832727","id":13379526,"name":"The Box Store Real Plaza Chiclayo","address":"Calle Mariscal Andrés Avelino Cáceres Nº 222","address2":"Int. 149A","country":"Peru","state":"Lambayeque","city":"Chiclayo","priority":1,"apply_to_type":1},{"lat":"-6.762831","lng":"-79.860957","id":13379527,"name":"The Box Big Store Mall Aventura Chiclayo","address":"Av. San Jose Maria Escriba de Balaguer","address2":"Tda 250","country":"Peru","state":"Lambayeque","city":"Chiclayo","priority":1,"apply_to_type":1},{"lat":"-5.192826","lng":"-80.639921","id":13379528,"name":"The Box Big Store Plaza La Luna Piura","address":"Av. Prolongación Grau 1460","address2":"Local 101-107 y 113","country":"Peru","state":"Piura","city":"Piura","priority":1,"apply_to_type":1},{"lat":"-5.185129","lng":"-80.642115","id":13379529,"name":"The Box Store Real Plaza Piura","address":"Av. Sanchez Cerro 234","address2":"Int. L154","country":"Peru","state":"Piura","city":"Piura","priority":1,"apply_to_type":1}]